{
    "title": "示例文档",
    "content": [
        {
            "id": "p047",
            "title": "也so单口喜剧全国巡演（佛山站）",
            "date": "2025-02-16",
            "enddate": "2025-02-16",
            "location": "佛山好说喜剧-禅桂坊店（祖庙街道大围街禅桂坊数字视听文化产业园）",
            "city": "佛山",
            "district": "禅城区",
            "team": ["也so喜剧团"],
            "times": ["19:30"],
            "tags": ["喜剧表演"],
            "highlight": false,
            "description": "也so单口喜剧全国巡演（佛山站）",
            "culturalMeaning": "通过喜剧表演传递欢乐，丰富市民文化生活"
        },
        {
            "id": "p048",
            "title": "罗琦《随心所欲》巡回演唱会",
            "date": "2025-02-22",
            "enddate": "2025-02-22",
            "location": "佛山岭南明珠体育馆-训练馆",
            "city": "佛山",
            "district": "禅城区",
            "team": ["罗琦演唱会团队"],
            "times": ["19:30"],
            "tags": ["演唱会"],
            "highlight": true,
            "description": "罗琦《随心所欲》巡回演唱会",
            "culturalMeaning": "中国摇滚第一女声，展现华语音乐的魅力"
        },
        {
            "id": "p049",
            "title": "徐佳莹演唱会",
            "date": "2025-03-22",
            "enddate": "2025-03-22",
            "location": "佛山国际体育文化演艺中心",
            "city": "佛山",
            "district": "禅城区",
            "team": ["徐佳莹演唱会团队"],
            "times": ["19:30"],
            "tags": ["演唱会"],
            "highlight": false,
            "description": "徐佳莹演唱会",
            "culturalMeaning": "华语流行音乐创作歌手，以独特的音乐风格著称"
        },
        {
            "id": "p050",
            "title": "陈晓东演唱会",
            "date": "2025-04-12",
            "enddate": "2025-04-12",
            "location": "佛山国际体育文化演艺中心",
            "city": "佛山",
            "district": "禅城区",
            "team": ["陈晓东演唱会团队"],
            "times": ["19:30"],
            "tags": ["演唱会"],
            "highlight": false,
            "description": "陈晓东演唱会",
            "culturalMeaning": "香港著名歌手，展现粤语流行音乐文化"
        },
        {
            "id": "p051",
            "title": "裁缝铺'来了'返场巡演",
            "date": "2025-03-01",
            "enddate": "2025-03-01",
            "location": "ALSOLIVE",
            "city": "佛山",
            "district": "禅城区",
            "team": ["裁缝铺乐队"],
            "times": ["20:00"],
            "tags": ["演唱会"],
            "highlight": false,
            "description": "裁缝铺'来了'返场巡演",
            "culturalMeaning": "独立音乐创作团队，展现当代年轻人的音乐态度"
        },
        {
            "id": "p052",
            "title": "中岛美嘉2025亚洲巡演",
            "date": "2025-03-30",
            "enddate": "2025-03-30",
            "location": "佛山国际体育文化演艺中心",
            "city": "佛山",
            "district": "禅城区",
            "team": ["中岛美嘉演唱会团队"],
            "times": ["19:30"],
            "tags": ["演唱会"],
            "highlight": true,
            "description": "中岛美嘉2025亚洲巡演",
            "culturalMeaning": "日本平成四大歌姬之一，促进中日文化交流"
        },
        {
            "id": "p053",
            "title": "爱在情人节佛山音乐会",
            "date": "2025-02-14",
            "enddate": "2025-02-14",
            "location": "佛山国际体育文化演艺中心",
            "city": "佛山",
            "district": "禅城区",
            "team": ["佛山交响乐团"],
            "times": ["19:30"],
            "tags": ["音乐会"],
            "highlight": false,
            "description": "爱在情人节佛山音乐会",
            "culturalMeaning": "以古典音乐传递浪漫情怀，丰富市民节日文化生活"
        },
        {
            "id": "p054",
            "title": "《光遇》玛雅·哈克福特 & 马特·卡马拉斯2025音乐会《The Reunion》",
            "date": "2025-04-19",
            "enddate": "2025-04-19",
            "location": "佛山市演艺中心",
            "city": "佛山",
            "district": "禅城区",
            "team": ["玛雅·哈克福特", "马特·卡马拉斯"],
            "times": ["19:30"],
            "tags": ["音乐会"],
            "highlight": false,
            "description": "《The Reunion》音乐会",
            "culturalMeaning": "国际知名音乐家联袂演出，展现古典音乐的魅力"
        },
        {
            "id": "p055",
            "title": "《离你'粤'近》鱼蛋巡回演唱会",
            "date": "2025-03-22",
            "enddate": "2025-03-22",
            "location": "佛山市演艺中心",
            "city": "佛山",
            "district": "禅城区",
            "team": ["鱼蛋乐队"],
            "times": ["19:30"],
            "tags": ["演唱会"],
            "highlight": false,
            "description": "《离你'粤'近》鱼蛋巡回演唱会",
            "culturalMeaning": "本土原创音乐团队，传承发扬粤语音乐文化"
        },
        {
            "id": "p056",
            "title": "金钟之星系列——《张佳康古筝独奏音乐会》",
            "date": "2025-03-28",
            "enddate": "2025-03-28",
            "location": "佛山大剧院",
            "city": "佛山",
            "district": "顺德区",
            "team": ["张佳康"],
            "times": ["19:30"],
            "tags": ["音乐会"],
            "highlight": false,
            "description": "张佳康古筝独奏音乐会",
            "culturalMeaning": "展现中国传统乐器的独特魅力，弘扬民族音乐文化"
        },
        {
            "id": "p057",
            "title": "2025 马克西姆 '边界' 古典跨界钢琴音乐会",
            "date": "2025-02-16",
            "enddate": "2025-02-16",
            "location": "佛山大剧院 大剧场",
            "city": "佛山",
            "district": "顺德区",
            "team": ["马克西姆", "佛山交响乐团"],
            "times": ["19:30"],
            "tags": ["音乐会"],
            "highlight": false,
            "description": "马克西姆古典跨界钢琴音乐会",
            "culturalMeaning": "融合古典与现代的跨界音乐盛宴，展现国际音乐文化交流"
        },
        {
            "id": "p058",
            "title": "《风继续吹》2025纪念张国荣22周年金曲演唱会",
            "date": "2025-06-01",
            "enddate": "2025-06-01",
            "location": "佛山·岭南明珠体育馆-训练馆",
            "city": "佛山",
            "district": "禅城区",
            "team": ["香港群星艺术团"],
            "times": ["19:30"],
            "tags": ["演唱会"],
            "highlight": false,
            "description": "纪念张国荣22周年金曲演唱会",
            "culturalMeaning": "缅怀华语乐坛传奇巨星，传承粤语流行音乐文化"
        },
        {
            "id": "p059",
            "title": "一步之遥——'献给最美的她'浪漫金曲'三八'特别音乐会",
            "date": "2025-04-01",
            "enddate": "2025-04-01",
            "location": "百老汇影城 演出厅-千灯湖环宇城店",
            "city": "佛山",
            "district": "禅城区",
            "team": ["佛山市女子交响乐团"],
            "times": ["19:30"],
            "tags": ["音乐会"],
            "highlight": false,
            "description": "浪漫金曲特别音乐会",
            "culturalMeaning": "致敬女性群体，展现女性艺术家的音乐魅力"
        },
        {
            "id": "p060",
            "title": "黄霄云演唱会",
            "date": "2025-03-22",
            "enddate": "2025-03-22",
            "location": "宝能广州国际体育演艺中心",
            "city": "广州",
            "district": "广州市",
            "team": ["黄霄云演唱会团队"],
            "times": ["19:30"],
            "tags": ["演唱会"],
            "highlight": false,
            "description": "黄霄云演唱会",
            "culturalMeaning": "新生代实力唱将，展现当代流行音乐新风貌"
        },
        {
            "id": "p061",
            "title": "热狗（MC HotDog）演唱会",
            "date": "2025-03-22",
            "enddate": "2025-03-22",
            "location": "广州体育馆1号馆",
            "city": "广州",
            "district": "白云区",
            "team": ["热狗演唱会团队"],
            "times": ["19:30"],
            "tags": ["演唱会"],
            "highlight": false,
            "description": "热狗（MC HotDog）演唱会",
            "culturalMeaning": "华语嘻哈音乐先驱，展现都市青年文化"
        },
        {
            "id": "p062",
            "title": "王心凌巡回演唱会",
            "date": "2025-03-29",
            "enddate": "2025-03-30",
            "location": "宝能广州国际体育演艺中心",
            "city": "广州",
            "district": "广州市",
            "team": ["王心凌演唱会团队"],
            "times": ["19:30"],
            "tags": ["演唱会"],
            "highlight": true,
            "description": "王心凌巡演",
            "culturalMeaning": "甜蜜教主回归，展现华语流行音乐的青春活力"
        },
        {
            "id": "p063",
            "title": "侧田演唱会",
            "date": "2025-03-29",
            "enddate": "2025-03-29",
            "location": "广州白云体育馆",
            "city": "广州",
            "district": "白云区",
            "team": ["侧田演唱会团队"],
            "times": ["19:30"],
            "tags": ["演唱会"],
            "highlight": false,
            "description": "侧田演唱会",
            "culturalMeaning": "香港创作歌手，展现粤语流行音乐的深情内涵"
        },
        {
            "id": "p064",
            "title": "王力宏演唱会",
            "date": "2025-04-19",
            "enddate": "2025-04-20",
            "location": "宝能广州国际体育演艺中心",
            "city": "广州",
            "district": "广州市",
            "team": ["王力宏演唱会团队"],
            "times": ["19:30"],
            "tags": ["演唱会"],
            "highlight": false,
            "description": "王力宏演唱会",
            "culturalMeaning": "华语乐坛创新先锋，融合东西方音乐文化"
        },
        {
            "id": "p065",
            "title": "张韶涵演唱会",
            "date": "2025-04-26",
            "enddate": "2025-04-26",
            "location": "广州大学城体育中心体育场",
            "city": "广州",
            "district": "番禺区",
            "team": ["张韶涵演唱会团队"],
            "times": ["19:30"],
            "tags": ["演唱会"],
            "highlight": false,
            "description": "张韶涵演唱会",
            "culturalMeaning": "华语流行音乐实力派歌手，展现不屈与坚强的音乐精神"
        },
        {
            "id": "p066",
            "title": "张惠妹演唱会",
            "date": "2025-05-10",
            "enddate": "2025-05-10",
            "location": "广州大学城体育中心体育场",
            "city": "广州",
            "district": "番禺区",
            "team": ["张惠妹演唱会团队"],
            "times": ["19:30"],
            "tags": ["演唱会"],
            "highlight": true,
            "description": "张惠妹演唱会",
            "culturalMeaning": "华语乐坛实力天后，展现原住民文化与现代音乐的融合"
        },
        {
            "id": "p067",
            "title": "罗嘉良演唱会",
            "date": "2025-06-28",
            "enddate": "2025-06-28",
            "location": "广州中山纪念堂",
            "city": "广州",
            "district": "越秀区",
            "team": ["罗嘉良演唱会团队"],
            "times": ["19:30"],
            "tags": ["演唱会"],
            "highlight": false,
            "description": "罗嘉良演唱会",
            "culturalMeaning": "香港演艺界全能艺人，展现粤语文化的多元魅力"
        },
        {
            "id": "p068",
            "title": "杨丞琳演唱会",
            "date": "2025-03-08",
            "enddate": "2025-03-08",
            "location": "深圳市体育中心体育馆（主馆）",
            "city": "深圳",
            "district": "福田区",
            "team": ["杨丞琳演唱会团队"],
            "times": ["19:30"],
            "tags": ["演唱会"],
            "highlight": false,
            "description": "杨丞琳演唱会",
            "culturalMeaning": "华语流行音乐新生代代表，展现青春活力与成熟魅力的完美结合"
        },
        {
            "id": "p070",
            "title": "张天赋演唱会",
            "date": "2025-03-29",
            "enddate": "2025-03-29",
            "location": "深圳市体育中心体育馆（主馆）",
            "city": "深圳",
            "district": "福田区",
            "team": ["张天赋演唱会团队"],
            "times": ["19:30"],
            "tags": ["演唱会"],
            "highlight": false,
            "description": "张天赋演唱会",
            "culturalMeaning": "华语流行音乐新生代代表，展现独特的音乐风格"
        },
        {
            "id": "p071",
            "title": "孙燕姿巡回演唱会",
            "date": "2025-05-16",
            "enddate": "2025-05-18",
            "location": "深圳大运中心体育馆",
            "city": "深圳",
            "district": "南山区",
            "team": ["孙燕姿演唱会团队"],
            "times": ["19:30"],
            "tags": ["演唱会"],
            "highlight": true,
            "description": "孙燕姿巡演",
            "culturalMeaning": "经典再现，不容错过"
        },
        {
            "id": "p072",
            "title": "王心凌巡回演唱会",
            "date": "2025-05-17",
            "enddate": "2025-05-18",
            "location": "深圳市体育中心体育馆（主馆）",
            "city": "深圳",
            "district": "福田区",
            "team": ["王心凌演唱会团队"],
            "times": ["19:30"],
            "tags": ["演唱会"],
            "highlight": true,
            "description": "王心凌巡回演唱会",
            "culturalMeaning": "甜蜜教主回归"
        },
        {
            "id": "p073",
            "title": "任贤齐演唱会",
            "date": "2025-05-31",
            "enddate": "2025-06-01",
            "location": "深圳大运中心体育馆",
            "city": "深圳",
            "district": "南山区",
            "team": ["任贤齐演唱会团队"],
            "times": ["19:30"],
            "tags": ["演唱会"],
            "highlight": false,
            "description": "任贤齐演唱会",
            "culturalMeaning": "华语乐坛传统巨星，展现经典音乐的魅力"
        },
        {
            "id": "p074",
            "title": "揭东区正月十七迎老爷活动",
            "date": "2025-02-17",
            "enddate": "2025-02-17",
            "location": "揭阳市揭东区渔湖仁辉村、南陇村、路篦村、缶灶村",
            "city": "揭阳",
            "district": "揭东区",
            "team": null,
            "times": ["全天"],
            "tags": ["迎老爷", "民俗活动"],
            "highlight": false,
            "culturalMeaning": "传统民俗活动，祈求平安与丰收"
        },
        {
            "id": "p075",
            "title": "揭东区正月十八迎老爷活动",
            "date": "2025-02-18",
            "enddate": "2025-02-18",
            "location": "揭阳市揭东区王滘镇、路篦村、圩埔村",
            "city": "揭阳",
            "district": "揭东区",
            "team": null,
            "times": ["全天"],
            "tags": ["迎老爷", "民俗活动"],
            "highlight": false,
            "culturalMeaning": "继续祈愿，保持民众的平安与幸福"
        },
        {
            "id": "p076",
            "title": "揭东区正月十九迎老爷活动",
            "date": "2025-02-19",
            "enddate": "2025-02-19",
            "location": "揭阳市揭东区曲溪路篦村、曲溪寨内村、曲溪诸美村、港美村",
            "city": "揭阳",
            "district": "揭东区",
            "team": null,
            "times": ["早上/晚上"],
            "tags": ["迎老爷", "民俗活动"],
            "highlight": false,
            "culturalMeaning": "传统祭祀活动，祈求五谷丰登"
        },
        {
            "id": "p077",
            "title": "揭东区正月二十迎老爷活动",
            "date": "2025-02-20",
            "enddate": "2025-02-20",
            "location": "揭阳市榕城区长美村、丰溪村、旧寨村、揭东区曲溪镇寨内村、诸美村",
            "city": "揭阳",
            "district": "榕城区",
            "team": null,
            "times": ["早上/全天"],
            "tags": ["迎老爷", "民俗活动"],
            "highlight": false,
            "culturalMeaning": "集体祭祀，彰显对祖先的尊敬和祈愿"
        },
        {
            "id": "p078",
            "title": "榕城正月二十一迎老爷活动",
            "date": "2025-02-21",
            "enddate": "2025-02-21",
            "location": "揭阳市榕城区渔湖长美村、南厝村、旧寨村、丰溪村、大瑶村",
            "city": "揭阳",
            "district": "榕城区",
            "team": null,
            "times": ["全天"],
            "tags": ["迎老爷", "民俗活动", "英歌舞狮"],
            "highlight": false,
            "culturalMeaning": "弘扬传统民俗活动，祈求安康与幸福"
        },
        {
            "id": "p079",
            "title": "揭东区正月二十二迎老爷活动",
            "date": "2025-02-22",
            "enddate": "2025-02-22",
            "location": "揭东区云路镇中夏村、榕城渔湖长美村、南厝村、丰溪村",
            "city": "揭阳",
            "district": "揭东区",
            "team": null,
            "times": ["白天"],
            "tags": ["迎老爷", "民俗活动"],
            "highlight": false,
            "culturalMeaning": "延续传统文化，营造节日气氛"
        },
        {
            "id": "p080",
            "title": "揭东区正月二十三迎老爷活动",
            "date": "2025-02-23",
            "enddate": "2025-02-23",
            "location": "揭东区云路镇中夏村、揭东区陇埔村",
            "city": "揭阳",
            "district": "揭东区",
            "team": null,
            "times": ["全天"],
            "tags": ["迎老爷", "摸糖狮", "民俗活动"],
            "highlight": false,
            "culturalMeaning": "结合现代灯光技术与传统民俗，提升节庆氛围"
        },
        {
            "id": "p081",
            "title": "榕城区正月二十五迎妈祖活动",
            "date": "2025-02-25",
            "enddate": "2025-02-25",
            "location": "揭阳市榕城区炮台镇石牌村",
            "city": "揭阳",
            "district": "榕城区",
            "team": null,
            "times": ["全天"],
            "tags": ["妈祖", "民俗活动", "摆粿架"],
            "highlight": false,
            "culturalMeaning": "祭祀妈祖，保佑村民平安与幸福"
        },
        {
            "id": "p082",
            "title": "揭东区正月二十六蟠龙村迎老爷活动",
            "date": "2025-02-26",
            "enddate": "2025-02-26",
            "location": "揭东区蜻龙村",
            "city": "揭阳",
            "district": "揭东区",
            "team": null,
            "times": ["全天"],
            "tags": ["迎老爷", "老爷出巡"],
            "highlight": false,
            "culturalMeaning": "传承老爷出巡活动，展现民俗风情"
        },
        {
            "id": "p083",
            "title": "榕城区正月二十九大德老爷出巡",
            "date": "2025-02-29",
            "enddate": "2025-02-29",
            "location": "揭阳市榕城区清风亭、大德老爷、新河村",
            "city": "揭阳",
            "district": "榕城区",
            "team": null,
            "times": ["全天"],
            "tags": ["迎花娇", "民俗活动"],
            "highlight": false,
            "culturalMeaning": "迎接吉祥与繁荣，展示传统习俗"
        },
        {
            "id": "p084",
            "title": "潮阳棉城双忠圣王游神",
            "date": "2025-03-08",
            "enddate": "2025-03-08",
            "location": "汕头市潮阳区棉城/双忠行祠",
            "city": "汕头",
            "district": "潮阳区",
            "team": null,
            "times": ["全天"],
            "tags": ["游神", "民俗活动"],
            "highlight": false,
            "culturalMeaning": "潮阳双忠文化节是潮阳地区最为盛大的文化盛宴，将成为春节后潮汕地区最热闹的民俗活动之一"
        },
        {
            "id": "p085",
            "title": "揭阳市城隍庙会",
            "date": "2025-02-20",
            "enddate": "2025-02-20",
            "location": "揭阳市城隍庙",
            "city": "揭阳",
            "district": "揭阳市",
            "team": null,
            "times": ["全天"],
            "tags": ["庙会", "民俗活动"],
            "highlight": false,
            "culturalMeaning": "传统宗教庙会，祈求一年的好运与平安"
        },
        {
            "id": "p086",
            "title": "潮州青龙庙会",
            "date": "2025-02-21",
            "enddate": "2025-02-21",
            "location": "潮州青龙古庙",
            "city": "潮州",
            "district": "潮州市",
            "team": null,
            "times": ["全天"],
            "tags": ["庙会", "民俗活动"],
            "highlight": false,
            "culturalMeaning": "青龙庙会以庙会为核心的民间祭典，祈求村民平安"
        },
        {
            "id": "p087",
            "title": "林忆莲《回响 Resonance》2025 巡回演唱会-深圳站",
            "date": "2025-02-22",
            "enddate": "2025-02-22",
            "location": "深圳湾体育中心'春茧'体育场",
            "city": "深圳",
            "district": "南山区",
            "artist": "林忆莲",
            "times": ["19:30"],
            "tags": ["演唱会", "流行音乐"],
            "highlight": true
        },
        {
            "id": "p088",
            "title": "毛不易「冒险精神」巡回演唱会-深圳站",
            "date": "2025-03-01",
            "enddate": "2025-03-01",
            "location": "深圳大运中心体育馆",
            "city": "深圳",
            "district": "龙岗区",
            "artist": "毛不易",
            "times": ["19:00"],
            "tags": ["演唱会", "流行音乐"],
            "highlight": true
        },
        {
            "id": "p089",
            "title": "2025好妹妹乐队「公园前」巡回演唱会-深圳站",
            "date": "2025-03-01",
            "enddate": "2025-03-01",
            "location": "深圳湾体育中心'春茧'体育场",
            "city": "深圳",
            "district": "南山区",
            "artist": "好妹妹乐队",
            "times": ["19:30"],
            "tags": ["演唱会", "民谣"],
            "highlight": false
        },
        {
            "id": "p090",
            "title": "橘子海 ORANGE OCEAN 2025巡演「充电」深圳站",
            "date": "2025-03-07",
            "enddate": "2025-03-07",
            "location": "深圳市 BO LIVE（前海店）",
            "city": "深圳",
            "district": "南山区",
            "artist": "橘子海",
            "times": ["20:00"],
            "tags": ["演唱会", "独立音乐"],
            "highlight": false
        },
        {
            "id": "p091",
            "title": "《给所有知道我名字的人》赵传2025巡回演唱会-深圳站",
            "date": "2025-03-08",
            "enddate": "2025-03-08",
            "location": "深圳湾体育中心'春茧'体育场",
            "city": "深圳",
            "district": "南山区",
            "artist": "赵传",
            "times": ["19:30"],
            "tags": ["演唱会", "摇滚"],
            "highlight": false
        },
        {
            "id": "p092",
            "title": "keshi 2025 Tour 深圳站",
            "date": "2025-03-13",
            "enddate": "2025-03-13",
            "location": "深圳湾体育中心'春茧'体育场",
            "city": "深圳",
            "district": "南山区",
            "artist": "keshi",
            "times": ["19:00"],
            "tags": ["演唱会", "R&B", "流行音乐"],
            "highlight": true
        },
        {
            "id": "p093",
            "title": "TizzyT「蝴蝶效应」巡回演唱会-深圳站",
            "date": "2025-03-15",
            "enddate": "2025-03-15",
            "location": "深圳大运中心体育馆",
            "city": "深圳",
            "district": "龙岗区",
            "artist": "TizzyT",
            "times": ["19:00"],
            "tags": ["演唱会", "嘻哈", "说唱"],
            "highlight": false
        },
        {
            "id": "p094",
            "title": "周华健「少年侠客」巡回演唱会内地最终场-深圳站",
            "date": "2025-03-22",
            "enddate": "2025-03-23",
            "location": "深圳大运中心体育馆",
            "city": "深圳",
            "district": "龙岗区",
            "artist": "周华健",
            "times": ["19:00"],
            "tags": ["演唱会", "经典"],
            "highlight": true
        },
        {
            "id": "p095",
            "title": "中岛美嘉2025亚洲巡演-深圳站",
            "date": "2025-03-28",
            "enddate": "2025-03-28",
            "location": "深圳国际会展中心20号馆",
            "city": "深圳",
            "district": "宝安区",
            "artist": "中岛美嘉",
            "times": ["19:30"],
            "tags": ["演唱会", "日系音乐"],
            "highlight": true
        },
        {
            "id": "p096",
            "title": "2025张远「白」巡回演唱会-深圳站",
            "date": "2025-03-29",
            "enddate": "2025-03-29",
            "location": "深圳湾体育中心'春茧'体育馆",
            "city": "深圳",
            "district": "南山区",
            "artist": "张远",
            "times": ["19:00"],
            "tags": ["演唱会", "流行音乐"],
            "highlight": false
        },
        {
            "id": "p097",
            "title": "许靖韵《This Chapter这一章》巡回音乐会-佛山站",
            "date": "2025-03-08",
            "enddate": "2025-03-08",
            "location": "佛山南海体育馆",
            "city": "佛山",
            "district": "南海区",
            "artist": "许靖韵",
            "times": ["20:00"],
            "tags": ["演唱会", "流行音乐"],
            "highlight": false
        },
        {
            "id": "p098",
            "title": "HANA菊梓乔、吴若希、郑融、连诗雅《至美时刻》演唱会-佛山站",
            "date": "2025-03-08",
            "enddate": "2025-03-08",
            "location": "佛山高明区体育中心",
            "city": "佛山",
            "district": "高明区",
            "artist": ["HANA菊梓乔", "吴若希", "郑融", "连诗雅"],
            "times": ["20:00"],
            "tags": ["演唱会", "粤语流行"],
            "highlight": true
        },
        {
            "id": "p099",
            "title": "Nick Carter《WHO I AM》巡演-广州站",
            "date": "2025-03-08",
            "enddate": "2025-03-08",
            "location": "广州中山纪念堂",
            "city": "广州",
            "district": "越秀区",
            "artist": "Nick Carter",
            "times": ["19:30"],
            "tags": ["演唱会", "欧美流行"],
            "highlight": true
        },
        {
            "id": "p100",
            "title": "潘美辰2025《回家》世界巡回演唱会-广州站",
            "date": "2025-03-29",
            "enddate": "2025-03-29",
            "location": "广州中山纪念堂",
            "city": "广州",
            "district": "越秀区",
            "artist": "潘美辰",
            "times": ["19:30"],
            "tags": ["演唱会", "华语流行"],
            "highlight": false
        },
        {
            "id": "p101",
            "title": "李佳隆2025《出人头地》演唱会-广州站",
            "date": "2025-03-01",
            "enddate": "2025-03-01",
            "location": "广州亚运城综合体育馆",
            "city": "广州",
            "district": "番禺区",
            "artist": "李佳隆",
            "times": ["19:30"],
            "tags": ["演唱会", "华语嘻哈"],
            "highlight": false
        },
        {
            "id": "p102",
            "title": "张学友《60+》巡回演唱会-广州站",
            "date": "2025-03-01",
            "enddate": "2025-03-09",
            "location": "宝能广州国际体育演艺中心",
            "city": "广州",
            "district": "黄埔区",
            "artist": "张学友",
            "times": ["19:30"],
            "tags": ["演唱会", "华语流行", "经典金曲"],
            "highlight": true
        },
        {
            "id": "s011",
            "title": "单依纯巡回演唱会-深圳站",
            "date": "2025-03-07",
            "enddate": "2025-03-07",
            "location": "深圳大运中心体育馆",
            "city": "深圳",
            "district": "龙岗区",
            "artist": "单依纯",
            "times": ["19:30"],
            "tags": ["演唱会", "华语流行"],
            "highlight": false
        },
        {
            "id": "s012",
            "title": "米卡巡回演唱会-深圳站",
            "date": "2025-03-14",
            "enddate": "2025-03-14",
            "location": "深圳保利剧院",
            "city": "深圳",
            "district": "南山区",
            "artist": "米卡",
            "times": ["19:30"],
            "tags": ["演唱会", "欧美流行"],
            "highlight": false
        },
        {
            "id": "s013",
            "title": "Imagine Dragons 世界巡演-深圳站",
            "date": "2025-04-08",
            "enddate": "2025-04-10",
            "location": "深圳大运中心体育场",
            "city": "深圳",
            "district": "龙岗区",
            "artist": "Imagine Dragons",
            "times": ["19:30"],
            "tags": ["演唱会", "摇滚", "国际巨星"],
            "highlight": true
        },
        {
            "id": "s014",
            "title": "林奕国演唱会-深圳站",
            "date": "2025-04-19",
            "enddate": "2025-04-19",
            "location": "深圳龙华文体中心综合馆",
            "city": "深圳",
            "district": "龙华区",
            "artist": "林奕国",
            "times": ["19:30"],
            "tags": ["演唱会", "华语流行"],
            "highlight": false
        },
        {
            "id": "s015",
            "title": "钟嘉欣巡回演唱会-深圳站",
            "date": "2025-04-26",
            "enddate": "2025-04-26",
            "location": "深圳宝安体育馆",
            "city": "深圳",
            "district": "宝安区",
            "artist": "钟嘉欣",
            "times": ["19:30"],
            "tags": ["演唱会", "粤语流行"],
            "highlight": false
        },
        {
            "id": "s016",
            "title": "孙燕姿巡回演唱会-深圳站",
            "date": "2025-05-16",
            "enddate": "2025-05-18",
            "location": "深圳大运中心体育场",
            "city": "深圳",
            "district": "龙岗区",
            "artist": "孙燕姿",
            "times": ["19:30"],
            "tags": ["演唱会", "华语流行", "经典金曲"],
            "highlight": true
        },
        {
            "id": "s017",
            "title": "薛凯琪巡回演唱会-深圳站",
            "date": "2025-05-17",
            "enddate": "2025-05-17",
            "location": "深圳湾春茧体育馆",
            "city": "深圳",
            "district": "南山区",
            "artist": "薛凯琪",
            "times": ["19:30"],
            "tags": ["演唱会", "粤语流行"],
            "highlight": false
        },
        {
            "id": "s018",
            "title": "房东的猫巡回演唱会-深圳站",
            "date": "2025-06-28",
            "enddate": "2025-06-28",
            "location": "深圳湾春茧体育馆",
            "city": "深圳",
            "district": "南山区",
            "artist": "房东的猫",
            "times": ["19:30"],
            "tags": ["演唱会", "民谣"],
            "highlight": false
        }
    ]
}