{
    "title": "示例文档",
    "content": [
    {
        "id": "park_lh_001",
        "title": "【龙湖区】潮汕博览中心前广场停车场",
        "location": "潮汕博览中心前广场",
        "district": "龙湖区",
        "city": "汕头",
        "capacity": 400,
        "type": "临时停车场",
        "tags": ["大型停车场", "地标建筑"],
        "advantages": "位于博览中心前，停车位充足",
        "description": "适合参观博览中心的访客使用，场地宽敞"
    },
    {
        "id": "park_lh_002",
        "title": "【龙湖区】新海街道东升村妈祖宫广场停车场",
        "location": "新海街道东升村妈祖宫广场",
        "district": "龙湖区",
        "city": "汕头",
        "capacity": 25,
        "type": "临时停车场",
        "tags": ["文化景点"],
        "advantages": "紧邻妈祖宫",
        "description": "适合参观妈祖宫的游客使用，车位有限请提前到达"
    },
    {
        "id": "park_hj_001",
        "title": "【濠江区】礐石绿道停车场",
        "location": "礐石绿道",
        "district": "濠江区",
        "city": "汕头",
        "capacity": 450,
        "type": "临时停车场",
        "tags": ["大型停车场", "景区配套"],
        "advantages": "靠近绿道入口，环境优美",
        "description": "适合游览礐石绿道的游客使用，停车位充足"
    },
    {
        "id": "park_hj_002",
        "title": "【濠江区】南滨公园停车场",
        "location": "南滨公园",
        "district": "濠江区",
        "city": "汕头",
        "capacity": 350,
        "type": "临时停车场",
        "tags": ["大型停车场", "公园配套"],
        "advantages": "紧邻公园，环境优美",
        "description": "适合游览南滨公园的游客使用，停车位充足"
    },
    {
        "id": "park_hj_003",
        "title": "【濠江区】创河路河浦街道停车场",
        "location": "创河路河浦街道前路段",
        "district": "濠江区",
        "city": "汕头",
        "capacity": 150,
        "type": "临时停车场",
        "tags": ["路边停车"],
        "advantages": "位于街道前路段，交通便利",
        "description": "适合到访河浦街道的车辆使用"
    },
    {
        "id": "park_hj_004",
        "title": "【濠江区】达南路逸轩润濠江湾停车场",
        "location": "达南路逸轩润濠江湾",
        "district": "濠江区",
        "city": "汕头",
        "capacity": 150,
        "type": "临时停车场",
        "tags": ["小区配套"],
        "advantages": "位于小区附近，方便居民使用",
        "description": "主要服务周边居民，非居民也可使用"
    },
    {
        "id": "park_hj_005",
        "title": "【濠江区】沿江路临时停车场",
        "location": "沿江路",
        "district": "濠江区",
        "city": "汕头",
        "capacity": 60,
        "type": "临时停车场",
        "tags": ["路边停车"],
        "advantages": "靠近江边，景色优美",
        "description": "适合观光游览的游客使用"
    },
    {
        "id": "park_hj_006",
        "title": "【濠江区】金南实验学校对面停车场",
        "location": "金南实验学校对面空地",
        "district": "濠江区",
        "city": "汕头",
        "capacity": 50,
        "type": "临时停车场",
        "tags": ["学校周边"],
        "advantages": "靠近学校，接送方便",
        "description": "适合接送学生使用，上下学高峰期请注意安全"
    },
    {
        "id": "park001",
        "title": "【金平区】小公园西堤停车场",
        "location": "镇邦路与西堤路交会处附近",
        "district": "金平区",
        "city": "汕头",
        "capacity": 1100,
        "price": "每小时2元，超过1小时每小时1元",
        "tags": ["大型停车场", "提供接驳车"],
        "advantages": "距离小公园7-8分钟步行，提供观光接驳车",
        "description": "建议提前到达，节假日人流较多"
    },
    {
        "id": "park002",
        "title": "【金平区】同平停车场",
        "location": "同平路50号",
        "district": "金平区",
        "city": "汕头",
        "capacity": 30,
        "price": "每小时2元",
        "tags": ["靠近景区入口"],
        "advantages": "靠近小公园景区入口300米",
        "description": "车位有限，节假日容易满，建议提前规划"
    },
    {
        "id": "park003",
        "title": "【金平区】升平停车场",
        "location": "升平路79号",
        "district": "金平区",
        "city": "汕头",
        "capacity": 40,
        "price": "每小时2元",
        "tags": ["紧邻核心区"],
        "advantages": "紧邻小公园核心区入口",
        "description": "节假日车位稀缺，可能没有空位"
    },
    {
        "id": "park004",
        "title": "【金平区】南粤停车场",
        "location": "外马路27号",
        "district": "金平区",
        "city": "汕头",
        "capacity": 100,
        "price": "每小时2元",
        "tags": ["立体停车场"],
        "advantages": "靠近景区，立体停车场，出停车场即可到达小公园",
        "description": "车位较为紧凑，驾车时需注意停车技巧"
    },
    {
        "id": "park005",
        "title": "【金平区】小公园中间停车场",
        "location": "靠近小公园园区",
        "district": "金平区",
        "city": "汕头",
        "capacity": 30,
        "price": "收费标准不固定",
        "tags": ["人工收费"],
        "advantages": "人工收费，停车时建议询问价格",
        "description": "车位有限，最好提前确认"
    },
    {
        "id": "park006",
        "title": "【金平区】镇邦路美食街停车场",
        "location": "汕头旅社附近",
        "district": "金平区",
        "city": "汕头",
        "capacity": 15,
        "price": "每小时2元",
        "tags": ["餐饮街区"],
        "advantages": "靠近餐饮街区",
        "description": "车位紧张，节假日特别拥堵"
    },
    {
        "id": "park007",
        "title": "【金平区】人民广场西停车场",
        "location": "人民广场",
        "district": "金平区",
        "city": "汕头",
        "capacity": "充足",
        "price": "每小时2元",
        "tags": ["大型停车场"],
        "advantages": "交通便利，适合较长时间停放",
        "description": "交通流量较大，节假日注意车位空缺"
    },
    {
        "id": "park008",
        "title": "【金平区】汕头人民体育场停车场",
        "location": "汕头人民体育场",
        "district": "金平区",
        "city": "汕头",
        "capacity": "充足",
        "price": "每小时2元",
        "tags": ["大型停车场"],
        "advantages": "适合长时间停放",
        "description": "可选择扫小电驴前往小公园，步行约10分钟"
    },
    {
        "id": "park009",
        "title": "【南澳岛】长山尾灯塔停车场",
        "location": "长山尾灯塔景区",
        "district": "南澳岛",
        "city": "汕头",
        "price": "15分钟免费，15元一次",
        "tags": ["景区停车场"],
        "description": "需要小心操作，因为车位较紧凑"
    },
    {
        "id": "park010",
        "title": "【南澳岛】钱澳湾灯塔停车场",
        "location": "钱澳湾灯塔景区",
        "district": "南澳岛",
        "city": "汕头",
        "price": "收费",
        "tags": ["景区停车场"],
        "description": "建议停车后步行至灯塔，沙滩边的栈道可以步行前往"
    },
    {
        "id": "park011",
        "title": "【南澳岛】天域山庄停车场",
        "location": "天域山庄",
        "district": "南澳岛",
        "city": "汕头",
        "price": "免费停车",
        "tags": ["免费停车"],
        "description": "停车场附近有施工现场，步行至景点需注意安全"
    },
    {
        "id": "park012",
        "title": "【南澳岛】前江湾世纪海景大酒店停车场",
        "location": "前江湾",
        "district": "南澳岛",
        "city": "汕头",
        "price": "住店免费，不对外开放",
        "tags": ["酒店专用"],
        "description": "停放时要注意停车场开放政策"
    },
    {
        "id": "park013",
        "title": "【南澳岛】三囱崖灯塔停车场",
        "location": "三囱崖灯塔景区",
        "district": "南澳岛",
        "city": "汕头",
        "price": "10元/次",
        "tags": ["景区停车场"],
        "description": "停车位有限，停车后需步行前往观景台"
    },
    {
        "id": "park014",
        "title": "【潮阳区】站前广场物业停车场",
        "location": "潮阳高铁站站前广场",
        "district": "潮阳区",
        "city": "汕头",
        "price": "30分钟内免费，30分钟-8小时10元，8-24小时15元，超24小时每天加收15元",
        "tags": ["高铁站停车场"],
        "description": "周边有多个私人停车场，价格一般为10元/天"
    },
    {
        "id": "park015",
        "title": "【潮阳区】高铁站附近私人停车场",
        "location": "潮阳高铁站周边",
        "district": "潮阳区",
        "city": "汕头",
        "price": "10元/天",
        "tags": ["私人停车场"],
        "description": "步行可达高铁站，方便快捷"
    },
    {
        "id": "park016",
        "title": "【龙湖区】环宇天下商圈免费停车场",
        "location": "环宇天下商圈，潮汕文化博物馆/臻宝博物馆",
        "district": "龙湖区",
        "city": "汕头",
        "price": "8:00-23:00免费停车",
        "tags": ["免费停车场", "商圈停车场"],
        "description": "停车场就在商圈附近，步行几分钟可到博物馆"
    },
    {
        "id": "park017",
        "title": "【龙湖区】博物馆地下停车场",
        "location": "潮汕博物馆",
        "district": "龙湖区",
        "city": "汕头",
        "price": "5元/小时，封顶收费",
        "tags": ["地下停车场"],
        "description": "收费停车场适合不想走路的游客"
    },
    {
        "id": "park018",
        "title": "【龙湖区】苏宁广场地下停车场",
        "location": "龙眼南路苏宁广场",
        "district": "龙湖区",
        "city": "汕头",
        "price": "每小时2元",
        "tags": ["地下停车场", "商场停车场"],
        "description": "与万象城停车场距离近，且无需排队入场，适合急于停车的游客"
    },
    {
        "id": "park019",
        "title": "【金平区】金港广场4区地下停车场",
        "location": "广东省汕头市金平区海安街道海滨路金港广场四区东门",
        "district": "金平区",
        "city": "汕头",
        "price": "不详",
        "tags": ["地下停车场", "商场停车场"],
        "description": "距离小公园商圈约78米，位置便利"
    },
    {
        "id": "park020",
        "title": "【金平区】德志苑停车场",
        "location": "汕头市金平区至平路98号",
        "district": "金平区",
        "city": "汕头",
        "price": "不详",
        "tags": ["小区停车场"],
        "description": "距离小公园商圈约209米，适合周边游览"
    },
    {
        "id": "park021",
        "title": "【金平区】万安花园停车场",
        "location": "德兴路46号",
        "district": "金平区",
        "city": "汕头",
        "price": "不详",
        "tags": ["小区停车场"],
        "description": "距离小公园商圈约245米，位于德兴路"
    },
    {
        "id": "park022",
        "title": "【金平区】汕头市石汽车客运站停车场",
        "location": "汕头市金平区西堤路4号",
        "district": "金平区",
        "city": "汕头",
        "price": "不详",
        "tags": ["交通枢纽", "大型停车场"],
        "description": "距离小公园商圈约294米，交通便利"
    },
    {
        "id": "park023",
        "title": "【金平区】汕头开埠文化陈列馆停车场",
        "location": "汕头市金平区永平路1号(近邮政集团)",
        "district": "金平区",
        "city": "汕头",
        "price": "不详",
        "tags": ["景点停车场", "文化场所"],
        "description": "距离小公园商圈约336米，可参观文化陈列馆"
    },
    {
        "id": "park024",
        "title": "【金平区】汕头市商平路小学停车场",
        "location": "汕头市金平区商平路95号",
        "district": "金平区",
        "city": "汕头",
        "price": "不详",
        "tags": ["学校停车场"],
        "description": "距离小公园商圈约372米，位于商平路"
    },
    {
        "id": "park025",
        "title": "【金平区】永平苑停车场",
        "location": "汕头市金平区永平路34号",
        "district": "金平区",
        "city": "汕头",
        "price": "不详",
        "tags": ["小区停车场"],
        "description": "距离小公园商圈约434米，位于永平路"
    },
    {
        "id": "park026",
        "title": "【金平区】侨批文物馆停车场",
        "location": "汕头市金平区外马路18号",
        "district": "金平区",
        "city": "汕头",
        "price": "不详",
        "tags": ["景点停车场", "文化场所"],
        "description": "距离小公园商圈约453米，可参观侨批文物馆"
    },
    {
        "id": "park027",
        "title": "【金平区】永顺小区停车场",
        "location": "汕头市金平区永平路34号永平苑",
        "district": "金平区",
        "city": "汕头",
        "price": "不详",
        "tags": ["小区停车场"],
        "description": "距离小公园商圈约456米，位于永平路"
    },
    {
        "id": "park028",
        "title": "【金平区】南粤大厦停车场",
        "location": "汕头市金平区外马路27号",
        "district": "金平区",
        "city": "汕头",
        "price": "不详",
        "tags": ["商业大厦停车场"],
        "description": "距离小公园商圈约513米，位于外马路"
    },
    {
        "id": "park029",
        "title": "【金平区】南海路停车场",
        "location": "广东省汕头市金平区南海路6号",
        "district": "金平区",
        "city": "汕头",
        "price": "不详",
        "tags": ["路边停车场"],
        "description": "距离小公园商圈约520米，位于南海一横巷"
    },
    {
        "id": "park030",
        "title": "【金平区】海关宿舍停车场",
        "location": "招商路与跃进路交叉口北100米",
        "district": "金平区",
        "city": "汕头",
        "price": "不详",
        "tags": ["路边停车场"],
        "description": "距离小公园商圈约527米，交通便利"
    },
    {
        "id": "park_na_001",
        "title": "【南澳岛】海上东方广场北侧停车场",
        "location": "海上东方广场北侧",
        "district": "南澳岛",
        "city": "汕头",
        "capacity": 400,
        "type": "固定停车场",
        "isPaid": true,
        "tags": ["大型停车场", "商圈配套"],
        "advantages": "位于商圈中心，停车位充足",
        "description": "适合购物、观光的游客使用，提供24小时服务"
    },
    {
        "id": "park_na_002",
        "title": "【南澳岛】赤石湾停车场",
        "location": "赤石湾景区",
        "district": "南澳岛",
        "city": "汕头",
        "capacity": 300,
        "type": "景区停车场",
        "tags": ["景区配套", "海滨景点"],
        "advantages": "紧邻赤石湾景区，视野开阔",
        "description": "适合游览赤石湾的游客使用，建议避开节假日高峰"
    },
    {
        "id": "park_na_003",
        "title": "【南澳岛】碧海蓝天停车场",
        "location": "碧海蓝天度假区",
        "district": "南澳岛",
        "city": "汕头",
        "capacity": 286,
        "type": "酒店停车场",
        "isPaid": true,
        "tags": ["酒店配套", "海滨度假"],
        "advantages": "环境优美，24小时管理",
        "description": "主要服务度假区住客，非住客也可使用"
    },
    {
        "id": "park_na_004",
        "title": "【南澳岛】半岛逸景停车场",
        "location": "半岛逸景酒店",
        "district": "南澳岛",
        "city": "汕头",
        "capacity": 243,
        "type": "酒店停车场",
        "isPaid": true,
        "tags": ["酒店配套", "观景位置"],
        "advantages": "视野极佳，设施完善",
        "description": "酒店住客优先，位置优越，环境优美"
    },
    {
        "id": "park_na_005",
        "title": "【南澳岛】宋井停车场",
        "location": "宋井景区",
        "district": "南澳岛",
        "city": "汕头",
        "capacity": 230,
        "type": "景区停车场",
        "isPaid": true,
        "tags": ["景区配套", "历史古迹"],
        "advantages": "靠近宋井古迹，交通便利",
        "description": "适合参观宋井景区的游客使用，配套设施完善"
    },
    {
        "id": "park_na_006",
        "title": "【南澳岛】青澳湾观景停车场",
        "location": "青澳湾景区",
        "district": "南澳岛",
        "city": "汕头",
        "capacity": 200,
        "type": "景区停车场",
        "isPaid": true,
        "tags": ["景区配套", "海滨景点", "观景台"],
        "advantages": "紧邻观景台，视野极佳",
        "description": "适合观赏日出日落，建议提前到达",
        "peakHours": "日出日落时段",
        "scenicSpot": "青澳湾"
    },
    {
        "id": "park_na_007",
        "title": "【南澳岛】南澳古城停车场",
        "location": "南澳古城景区",
        "district": "南澳岛",
        "city": "汕头",
        "capacity": 180,
        "type": "景区停车场",
        "isPaid": true,
        "tags": ["景区配套", "历史古迹"],
        "advantages": "靠近古城入口，交通便利",
        "description": "游览古城的最佳停车选择，配有导游服务点",
        "peakHours": "9:00-17:00",
        "scenicSpot": "南澳古城"
    },
    {
        "id": "park_na_008",
        "title": "【南澳岛】前江埔海滨浴场停车场",
        "location": "前江埔海滨浴场",
        "district": "南澳岛",
        "city": "汕头",
        "capacity": 150,
        "type": "景区停车场",
        "isPaid": true,
        "tags": ["海滨浴场", "休闲娱乐"],
        "advantages": "紧邻沙滩，设施完善",
        "description": "适合海滨游玩，提供更衣设施",
        "peakHours": "周末及节假日",
        "scenicSpot": "前江埔海滨浴场"
    },
    {
        "id": "park_na_009",
        "title": "【南澳岛】南澳岛渔人码头停车场",
        "location": "南澳岛渔人码头",
        "district": "南澳岛",
        "city": "汕头",
        "capacity": 150,
        "type": "码头停车场",
        "isPaid": true,
        "tags": ["码头配套", "观光地点"],
        "advantages": "可观赏渔船出海，品尝海鲜",
        "description": "适合观赏渔船作业，周边有海鲜市场",
        "peakHours": "清晨和傍晚",
        "scenicSpot": "渔人码头"
    },
    {
        "id": "park_na_010",
        "title": "【南澳岛】青澳湾度假村停车场",
        "location": "青澳湾度假村",
        "district": "南澳岛",
        "city": "汕头",
        "capacity": 120,
        "type": "酒店停车场",
        "isPaid": true,
        "tags": ["酒店配套", "度假设施"],
        "advantages": "24小时管理，安全便利",
        "description": "度假村住客免费，非住客收费使用",
        "peakHours": "入住高峰期",
        "scenicSpot": "青澳湾"
    },
    {
        "id": "park_na_011",
        "title": "【南澳岛】南澳岛海滨广场停车场",
        "location": "南澳岛海滨广场",
        "district": "南澳岛",
        "city": "汕头",
        "capacity": 100,
        "type": "广场停车场",
        "isPaid": true,
        "tags": ["广场配套", "休闲娱乐"],
        "advantages": "临海广场，环境优美",
        "description": "适合休闲散步，观赏海景",
        "peakHours": "傍晚时分",
        "scenicSpot": "海滨广场"
    },
    {
        "id": "park_na_012",
        "title": "【南澳岛】云澳金沙滩停车场",
        "location": "云澳金沙滩景区",
        "district": "南澳岛",
        "city": "汕头",
        "capacity": 100,
        "type": "景区停车场",
        "isPaid": true,
        "tags": ["景区配套", "海滨景点"],
        "advantages": "紧邻金沙滩，环境优美",
        "description": "适合海滨游玩，提供更衣设施",
        "peakHours": "上午9:00-下午5:00",
        "scenicSpot": "云澳金沙滩"
    },
    {
        "id": "park_na_013",
        "title": "【南澳岛】后江埔海滨浴场停车场",
        "location": "后江埔海滨浴场",
        "district": "南澳岛",
        "city": "汕头",
        "capacity": 100,
        "type": "景区停车场",
        "isPaid": true,
        "tags": ["海滨浴场", "休闲娱乐"],
        "advantages": "靠近浴场，设施完善",
        "description": "适合海滨游玩，提供淋浴设施",
        "peakHours": "周末及节假日",
        "scenicSpot": "后江埔海滨浴场"
    },
    {
        "id": "park_na_014",
        "title": "【南澳岛】南澳县博物馆停车场",
        "location": "南澳县博物馆",
        "district": "南澳岛",
        "city": "汕头",
        "capacity": 80,
        "type": "文化设施停车场",
        "isPaid": false,
        "tags": ["文化设施", "博物馆"],
        "advantages": "位置便利，免费停车",
        "description": "参观博物馆游客免费使用",
        "peakHours": "9:00-16:30",
        "scenicSpot": "南澳县博物馆"
    },
    {
        "id": "park_na_015",
        "title": "【南澳岛】南澳岛海鲜街停车场",
        "location": "南澳岛海鲜街",
        "district": "南澳岛",
        "city": "汕头",
        "capacity": 80,
        "type": "商业配套停车场",
        "isPaid": true,
        "tags": ["美食街区", "商业配套"],
        "advantages": "紧邻海鲜街，方便就餐",
        "description": "在海鲜街消费可抵扣停车费",
        "peakHours": "用餐高峰期",
        "scenicSpot": "南澳海鲜街"
    },
    {
        "id": "park_ch_001",
        "title": "【澄海区】澄海体育中心停车场",
        "location": "澄海体育中心",
        "district": "澄海区",
        "city": "汕头",
        "capacity": 500,
        "type": "固定停车场",
        "isPaid": true,
        "tags": ["大型停车场", "体育场馆"],
        "advantages": "场地宽敞，配套设施完善",
        "description": "赛事期间优先保障赛事车辆，平时对外开放",
        "peakHours": "赛事期间（请关注体育中心公告）"
    },
    {
        "id": "park_ch_002",
        "title": "【澄海区】澄海汽车站停车场",
        "location": "澄海汽车站",
        "district": "澄海区",
        "city": "汕头",
        "capacity": 300,
        "type": "固定停车场",
        "isPaid": true,
        "tags": ["交通枢纽", "大型停车场"],
        "advantages": "交通便利，24小时开放",
        "description": "适合长短途停车，配有安保系统",
        "peakHours": "早7:00-9:00，晚17:00-19:00"
    },
    {
        "id": "park_ch_003",
        "title": "【澄海区】澄海广场停车场",
        "location": "澄海广场",
        "district": "澄海区",
        "city": "汕头",
        "capacity": 280,
        "type": "固定停车场",
        "isPaid": true,
        "tags": ["商圈配套", "大型停车场"],
        "advantages": "位于市中心，交通便利",
        "description": "适合购物、休闲的市民使用",
        "peakHours": "周末10:00-22:00"
    },
    {
        "id": "park_ch_004",
        "title": "【澄海区】澄海人民医院停车场",
        "location": "澄海人民医院",
        "district": "澄海区",
        "city": "汕头",
        "capacity": 250,
        "type": "固定停车场",
        "isPaid": true,
        "tags": ["医院配套", "24小时开放"],
        "advantages": "紧邻医院，方便就医",
        "description": "主要服务就医人员，设有急诊专用车位",
        "peakHours": "工作日8:00-17:00"
    },
    {
        "id": "park_ch_005",
        "title": "【澄海区】澄海文化广场停车场",
        "location": "澄海文化广场",
        "district": "澄海区",
        "city": "汕头",
        "capacity": 200,
        "type": "固定停车场",
        "isPaid": true,
        "tags": ["文化设施", "休闲场所"],
        "advantages": "环境优美，场地宽敞",
        "description": "适合参加文化活动和休闲的市民",
        "peakHours": "周末及节假日"
    },
    {
        "id": "park_ch_006",
        "title": "【澄海区】莲下镇农贸市场停车场",
        "location": "莲下镇农贸市场",
        "district": "澄海区",
        "city": "汕头",
        "capacity": 180,
        "type": "固定停车场",
        "isPaid": false,
        "tags": ["市场配套", "便民设施"],
        "advantages": "靠近市场，方便采购",
        "description": "早市期间车位紧张，建议错峰停车",
        "peakHours": "每日6:00-9:00"
    },
    {
        "id": "park_ch_007",
        "title": "【澄海区】澄海汽车总站停车场",
        "location": "澄海汽车总站",
        "district": "澄海区",
        "city": "汕头",
        "capacity": 150,
        "type": "固定停车场",
        "isPaid": true,
        "tags": ["交通枢纽", "长途客运"],
        "advantages": "配套设施完善，安保严格",
        "description": "适合长途出行乘客使用，提供长期寄存服务",
        "peakHours": "节假日返程高峰期"
    },
    {
        "id": "park_ch_008",
        "title": "【澄海区】澄海中心商业广场停车场",
        "location": "澄海中心商业广场",
        "district": "澄海区",
        "city": "汕头",
        "capacity": 150,
        "type": "地下停车场",
        "isPaid": true,
        "tags": ["商业中心", "室内停车"],
        "advantages": "室内停车，遮风挡雨",
        "description": "商场顾客凭消费小票可享受优惠",
        "peakHours": "周末及节假日10:00-22:00"
    },
    {
        "id": "park_ch_009",
        "title": "【澄海区】澄海区政务服务中心停车场",
        "location": "澄海区政务服务中心",
        "district": "澄海区",
        "city": "汕头",
        "capacity": 120,
        "type": "固定停车场",
        "isPaid": false,
        "tags": ["政务服务", "公共设施"],
        "advantages": "方便办事，有序管理",
        "description": "工作日优先供办事群众使用",
        "peakHours": "工作日上午"
    },
    {
        "id": "park_ch_010",
        "title": "【澄海区】澄海区体育馆停车场",
        "location": "澄海区体育馆",
        "district": "澄海区",
        "city": "汕头",
        "capacity": 100,
        "type": "固定停车场",
        "isPaid": true,
        "tags": ["体育场馆", "公共设施"],
        "advantages": "场地平整，出入方便",
        "description": "举办比赛时优先保障参赛人员",
        "peakHours": "比赛日及周末"
    },
    {
        "id": "park_cy_001",
        "title": "【潮阳区】文光塔广场停车场",
        "location": "文光塔广场",
        "district": "潮阳区",
        "city": "汕头",
        "capacity": 200,
        "type": "临时停车场",
        "isPaid": false,
        "tags": ["景区配套", "文化地标"],
        "advantages": "紧邻文光塔，位置便利",
        "description": "节假日期间车位紧张，建议错峰停车",
        "peakHours": "节假日9:00-17:00"
    },
    {
        "id": "park_cy_002",
        "title": "【潮阳区】潮阳区政府广场停车场",
        "location": "潮阳区政府广场",
        "district": "潮阳区",
        "city": "汕头",
        "capacity": 150,
        "type": "固定停车场",
        "isPaid": true,
        "tags": ["政务中心", "公共设施"],
        "advantages": "场地规范，管理有序",
        "description": "工作日优先保障办事车辆",
        "peakHours": "工作日9:00-11:30，14:30-17:00"
    },
    {
        "id": "park_cy_003",
        "title": "【潮阳区】文光广场地下停车场",
        "location": "文光广场地下",
        "district": "潮阳区",
        "city": "汕头",
        "capacity": 200,
        "type": "地下停车场",
        "isPaid": true,
        "tags": ["商圈配套", "地下停车"],
        "advantages": "位置便利，遮风避雨",
        "description": "商场消费可优惠停车",
        "peakHours": "10:00-22:00"
    },
    {
        "id": "park_cy_004",
        "title": "【潮阳区】和平影剧院停车场",
        "location": "和平影剧院",
        "district": "潮阳区",
        "city": "汕头",
        "capacity": 150,
        "type": "影院停车场",
        "isPaid": true,
        "tags": ["影院配套", "文娱设施"],
        "advantages": "紧邻影院，停车方便",
        "description": "观影可享受停车优惠",
        "peakHours": "电影场次时间"
    },
    {
        "id": "park_cy_005",
        "title": "【潮阳区】潮阳区政务服务中心停车场",
        "location": "潮阳区政务服务中心",
        "district": "潮阳区",
        "city": "汕头",
        "capacity": 120,
        "type": "行政服务停车场",
        "isPaid": false,
        "tags": ["政务服务", "公共设施"],
        "advantages": "方便办事，免费停车",
        "description": "办理政务服务专用",
        "peakHours": "工作日上午"
    },
    {
        "id": "park_ch_011",
        "title": "【澄海区】澄海图书馆停车场",
        "location": "澄海区图书馆",
        "district": "澄海区",
        "city": "汕头",
        "capacity": 80,
        "type": "固定停车场",
        "isPaid": false,
        "tags": ["文化设施", "公共服务"],
        "advantages": "环境安静，管理规范",
        "description": "图书馆读者优先使用，需出示读者证",
        "peakHours": "周末9:00-17:00"
    },
    {
        "id": "park_ch_012",
        "title": "【澄海区】莲华商业广场停车场",
        "location": "莲华商业广场",
        "district": "澄海区",
        "city": "汕头",
        "capacity": 80,
        "type": "地下停车场",
        "isPaid": true,
        "tags": ["商业配套", "室内停车"],
        "advantages": "地下停车，全天候使用",
        "description": "商场消费满额可免费停车2小时",
        "peakHours": "周末及节假日"
    },
    {
        "id": "park_ch_013",
        "title": "【澄海区】澄海区妇幼保健院停车场",
        "location": "澄海区妇幼保健院",
        "district": "澄海区",
        "city": "汕头",
        "capacity": 70,
        "type": "固定停车场",
        "isPaid": true,
        "tags": ["医院配套", "专用停车场"],
        "advantages": "靠近医院门诊部，方便就医",
        "description": "设有孕妇专用车位，就医患者优先",
        "peakHours": "工作日上午"
    },
    {
        "id": "park_ch_014",
        "title": "【澄海区】澄海区第一中学停车场",
        "location": "澄海区第一中学",
        "district": "澄海区",
        "city": "汕头",
        "capacity": 60,
        "type": "固定停车场",
        "isPaid": false,
        "tags": ["学校配套", "教育设施"],
        "advantages": "校园内停车场，安全管理",
        "description": "主要供教职工使用，访客需登记",
        "peakHours": "上下学时段7:00-8:00, 16:30-17:30"
    },
    {
        "id": "park_ch_015",
        "title": "【澄海区】澄海区档案馆停车场",
        "location": "澄海区档案馆",
        "district": "澄海区",
        "city": "汕头",
        "capacity": 50,
        "type": "固定停车场",
        "isPaid": false,
        "tags": ["政务设施", "公共服务"],
        "advantages": "场地整洁，秩序良好",
        "description": "办理档案业务人员优先使用",
        "peakHours": "工作日9:00-11:30, 14:30-17:00"
    },
    {
        "id": "park_ch_016",
        "title": "【澄海区】莲下镇政府停车场",
        "location": "莲下镇政府",
        "district": "澄海区",
        "city": "汕头",
        "capacity": 50,
        "type": "固定停车场",
        "isPaid": false,
        "tags": ["政务设施", "镇级配套"],
        "advantages": "方便办事，管理规范",
        "description": "主要供办事群众使用",
        "peakHours": "工作日上午"
    },
    {
        "id": "park_ch_017",
        "title": "【澄海区】上华镇便民服务中心停车场",
        "location": "上华镇便民服务中心",
        "district": "澄海区",
        "city": "汕头",
        "capacity": 45,
        "type": "固定停车场",
        "isPaid": false,
        "tags": ["便民服务", "镇级配套"],
        "advantages": "服务设施齐全",
        "description": "便民服务中心办事群众优先",
        "peakHours": "工作日9:00-11:30"
    },
    {
        "id": "park_ch_018",
        "title": "【澄海区】隆都镇农贸市场停车场",
        "location": "隆都镇农贸市场",
        "district": "澄海区",
        "city": "汕头",
        "capacity": 40,
        "type": "露天停车场",
        "isPaid": false,
        "tags": ["市场配套", "镇级设施"],
        "advantages": "靠近市场，方便采购",
        "description": "早市期间车位紧张",
        "peakHours": "每日6:00-9:00"
    },
    {
        "id": "park_ch_019",
        "title": "【澄海区】东里镇文化站停车场",
        "location": "东里镇文化站",
        "district": "澄海区",
        "city": "汕头",
        "capacity": 35,
        "type": "固定停车场",
        "isPaid": false,
        "tags": ["文化设施", "镇级配套"],
        "advantages": "环境优美，场地整洁",
        "description": "文化活动期间优先使用",
        "peakHours": "活动举办期间"
    },
    {
        "id": "park_ch_020",
        "title": "【澄海区】溪南镇卫生院停车场",
        "location": "溪南镇卫生院",
        "district": "澄海区",
        "city": "汕头",
        "capacity": 30,
        "type": "固定停车场",
        "isPaid": false,
        "tags": ["医疗设施", "镇级配套"],
        "advantages": "方便就医，管理有序",
        "description": "就医患者优先使用",
        "peakHours": "工作日上午"
    },
    {
        "id": "park_ch_021",
        "title": "【澄海区】凤翔街道便民停车场",
        "location": "凤翔街道",
        "district": "澄海区",
        "city": "汕头",
        "capacity": 30,
        "type": "临时停车场",
        "isPaid": false,
        "tags": ["街道配套", "便民设施"],
        "advantages": "位置便利，方便停车",
        "description": "便民停车场，适合短时停车",
        "peakHours": "工作日早晚高峰"
    },
    {
        "id": "park_ch_022",
        "title": "【澄海区】上华镇中心小学停车场",
        "location": "上华镇中心小学",
        "district": "澄海区",
        "city": "汕头",
        "capacity": 25,
        "type": "固定停车场",
        "isPaid": false,
        "tags": ["学校配套", "教育设施"],
        "advantages": "校园内停车场，安全有序",
        "description": "主要供教职工使用，接送学生车辆需登记",
        "peakHours": "上下学时段"
    },
    {
        "id": "park_ch_023",
        "title": "【澄海区】隆都镇文化广场停车场",
        "location": "隆都镇文化广场",
        "district": "澄海区",
        "city": "汕头",
        "capacity": 25,
        "type": "露天停车场",
        "isPaid": false,
        "tags": ["文化设施", "镇级配套"],
        "advantages": "场地开阔，停车方便",
        "description": "文化活动期间车位紧张",
        "peakHours": "周末及节假日"
    },
    {
        "id": "park_ch_024",
        "title": "【澄海区】东里镇卫生院停车场",
        "location": "东里镇卫生院",
        "district": "澄海区",
        "city": "汕头",
        "capacity": 20,
        "type": "固定停车场",
        "isPaid": false,
        "tags": ["医疗设施", "镇级配套"],
        "advantages": "方便就医，管理有序",
        "description": "就医患者优先使用",
        "peakHours": "工作日上午"
    },
    {
        "id": "park_ch_025",
        "title": "【澄海区】溪南镇便民服务中心停车场",
        "location": "溪南镇便民服务中心",
        "district": "澄海区",
        "city": "汕头",
        "capacity": 20,
        "type": "固定停车场",
        "isPaid": false,
        "tags": ["便民服务", "镇级配套"],
        "advantages": "方便办事，管理规范",
        "description": "办事群众优先使用",
        "peakHours": "工作日上午"
    },
    {
        "id": "park_ch_026",
        "title": "【澄海区】莲华社区便民停车场",
        "location": "莲华社区",
        "district": "澄海区",
        "city": "汕头",
        "capacity": 20,
        "type": "临时停车场",
        "isPaid": false,
        "tags": ["社区配套", "便民设施"],
        "advantages": "位置便利，方便居民",
        "description": "主要服务社区居民，临时停车免费",
        "peakHours": "早晚高峰"
    },
    {
        "id": "park_ch_027",
        "title": "【澄海区】上华镇敬老院停车场",
        "location": "上华镇敬老院",
        "district": "澄海区",
        "city": "汕头",
        "capacity": 15,
        "type": "固定停车场",
        "isPaid": false,
        "tags": ["养老设施", "镇级配套"],
        "advantages": "环境安静，适合探亲",
        "description": "探访亲属优先使用",
        "peakHours": "探访时间"
    },
    {
        "id": "park_ch_028",
        "title": "【澄海区】隆都镇社区服务中心停车场",
        "location": "隆都镇社区服务中心",
        "district": "澄海区",
        "city": "汕头",
        "capacity": 15,
        "type": "固定停车场",
        "isPaid": false,
        "tags": ["社区服务", "镇级配套"],
        "advantages": "服务设施齐全",
        "description": "办理社区事务居民优先",
        "peakHours": "工作日上午"
    },
    {
        "id": "park_ch_029",
        "title": "【澄海区】东里镇便民市场停车场",
        "location": "东里镇便民市场",
        "district": "澄海区",
        "city": "汕头",
        "capacity": 15,
        "type": "临时停车场",
        "isPaid": false,
        "tags": ["市场配套", "镇级设施"],
        "advantages": "靠近市场，方便采购",
        "description": "早市期间车位紧张",
        "peakHours": "每日6:00-9:00"
    },
    {
        "id": "park_ch_030",
        "title": "【澄海区】溪南镇文化站停车场",
        "location": "溪南镇文化站",
        "district": "澄海区",
        "city": "汕头",
        "capacity": 15,
        "type": "固定停车场",
        "isPaid": false,
        "tags": ["文化设施", "镇级配套"],
        "advantages": "环境优美，场地整洁",
        "description": "文化活动期间优先使用",
        "peakHours": "活动举办期间"
    },
    {
        "id": "park_ch_031",
        "title": "【澄海区】莲下镇文化站停车场",
        "location": "莲下镇文化站",
        "district": "澄海区",
        "city": "汕头",
        "capacity": 15,
        "type": "固定停车场",
        "isPaid": false,
        "tags": ["文化设施", "镇级配套"],
        "advantages": "环境优美，适合文化活动",
        "description": "文化活动期间优先使用",
        "peakHours": "活动举办期间"
    },
    {
        "id": "park_ch_032",
        "title": "【澄海区】上华镇卫生院停车场",
        "location": "上华镇卫生院",
        "district": "澄海区",
        "city": "汕头",
        "capacity": 12,
        "type": "固定停车场",
        "isPaid": false,
        "tags": ["医疗设施", "镇级配套"],
        "advantages": "方便就医，管理有序",
        "description": "就医患者优先使用",
        "peakHours": "工作日上午"
    },
    {
        "id": "park_ch_033",
        "title": "【澄海区】隆都镇卫生院停车场",
        "location": "隆都镇卫生院",
        "district": "澄海区",
        "city": "汕头",
        "capacity": 12,
        "type": "固定停车场",
        "isPaid": false,
        "tags": ["医疗设施", "镇级配套"],
        "advantages": "方便就医，管理有序",
        "description": "就医患者优先使用",
        "peakHours": "工作日上午"
    },
    {
        "id": "park_na_016",
        "title": "【南澳县】南澳县中医院停车场",
        "location": "南澳县中医院",
        "district": "南澳县",
        "city": "汕头",
        "capacity": 60,
        "type": "医院停车场",
        "isPaid": true,
        "tags": ["医疗设施", "公共服务"],
        "advantages": "方便就医，24小时开放",
        "description": "就医患者优惠收费",
        "peakHours": "门诊时间"
    },
    {
        "id": "park_na_017",
        "title": "【南澳县】南澳汽车站停车场",
        "location": "南澳汽车站",
        "district": "南澳县",
        "city": "汕头",
        "capacity": 50,
        "type": "交通枢纽停车场",
        "isPaid": true,
        "tags": ["交通枢纽", "公共服务"],
        "advantages": "交通便利，换乘方便",
        "description": "适合长短途换乘",
        "peakHours": "早晚高峰"
    },
    {
        "id": "park_na_018",
        "title": "【南澳县】南澳县政务服务中心停车场",
        "location": "南澳县政务服务中心",
        "district": "南澳县",
        "city": "汕头",
        "capacity": 50,
        "type": "行政服务停车场",
        "isPaid": false,
        "tags": ["政务服务", "公共设施"],
        "advantages": "办事方便，免费停车",
        "description": "办理政务服务专用",
        "peakHours": "工作日上午"
    },
    {
        "id": "park_na_019",
        "title": "【南澳县】南澳县体育中心停车场",
        "location": "南澳县体育中心",
        "district": "南澳县",
        "city": "汕头",
        "capacity": 50,
        "type": "体育设施停车场",
        "isPaid": false,
        "tags": ["体育设施", "公共服务"],
        "advantages": "场地宽敞，配套完善",
        "description": "参加体育活动免费停车",
        "peakHours": "周末及节假日"
    },
    {
        "id": "park_na_020",
        "title": "【南澳县】南澳县图书馆停车场",
        "location": "南澳县图书馆",
        "district": "南澳县",
        "city": "汕头",
        "capacity": 40,
        "type": "文化设施停车场",
        "isPaid": false,
        "tags": ["文化设施", "公共服务"],
        "advantages": "环境安静，免费停车",
        "description": "图书馆读者专用",
        "peakHours": "周末"
    },
    {
        "id": "park_cy_006",
        "title": "【潮阳区】潮阳区人民医院停车场",
        "location": "潮阳区人民医院",
        "district": "潮阳区",
        "city": "汕头",
        "capacity": 100,
        "type": "医院停车场",
        "isPaid": true,
        "tags": ["医疗设施", "公共服务"],
        "advantages": "方便就医，24小时开放",
        "description": "就医患者优惠收费",
        "peakHours": "门诊时间"
    },
    {
        "id": "park_cy_007",
        "title": "【潮阳区】潮阳区体育中心停车场",
        "location": "潮阳区体育中心",
        "district": "潮阳区",
        "city": "汕头",
        "capacity": 100,
        "type": "体育设施停车场",
        "isPaid": false,
        "tags": ["体育设施", "公共服务"],
        "advantages": "场地宽敞，配套完善",
        "description": "体育活动期间免费开放",
        "peakHours": "周末及节假日"
    },
    {
        "id": "park_cy_008",
        "title": "【潮阳区】潮阳汽车站停车场",
        "location": "潮阳汽车站",
        "district": "潮阳区",
        "city": "汕头",
        "capacity": 80,
        "type": "交通枢纽停车场",
        "isPaid": true,
        "tags": ["交通枢纽", "公共服务"],
        "advantages": "交通便利，换乘方便",
        "description": "适合长短途换乘",
        "peakHours": "早晚高峰"
    },
    {
        "id": "park_ch_034",
        "title": "【澄海区】澄海区第一人民医院停车场",
        "location": "澄海区第一人民医院",
        "district": "澄海区",
        "city": "汕头",
        "capacity": 100,
        "type": "医院停车场",
        "isPaid": true,
        "tags": ["医疗设施", "公共服务"],
        "advantages": "方便就医，24小时开放",
        "description": "就医患者优惠收费",
        "peakHours": "门诊时间"
    },
    {
        "id": "park_ch_035",
        "title": "【澄海区】澄海区中医医院停车场",
        "location": "澄海区中医医院",
        "district": "澄海区",
        "city": "汕头",
        "capacity": 80,
        "type": "医院停车场",
        "isPaid": true,
        "tags": ["医疗设施", "公共服务"],
        "advantages": "方便就医，环境安静",
        "description": "就医患者优惠收费",
        "peakHours": "门诊时间"
    },
    {
        "id": "park_ch_036",
        "title": "【澄海区】澄海区妇幼保健院停车场",
        "location": "澄海区妇幼保健院",
        "district": "澄海区",
        "city": "汕头",
        "capacity": 60,
        "type": "医院停车场",
        "isPaid": true,
        "tags": ["医疗设施", "公共服务"],
        "advantages": "方便就医，环境舒适",
        "description": "就医患者优惠收费",
        "peakHours": "门诊时间"
    },
    {
        "id": "park_ch_037",
        "title": "【澄海区】澄海区汽车站停车场",
        "location": "澄海区汽车站",
        "district": "澄海区",
        "city": "汕头",
        "capacity": 100,
        "type": "交通枢纽停车场",
        "isPaid": true,
        "tags": ["交通枢纽", "公共服务"],
        "advantages": "交通便利，换乘方便",
        "description": "适合长短途换乘",
        "peakHours": "早晚高峰"
    },
    {
        "id": "park_ch_038",
        "title": "【澄海区】澄海区文化馆停车场",
        "location": "澄海区文化馆",
        "district": "澄海区",
        "city": "汕头",
        "capacity": 50,
        "type": "文化设施停车场",
        "isPaid": false,
        "tags": ["文化设施", "公共服务"],
        "advantages": "环境优美，免费停车",
        "description": "参加文化活动免费使用",
        "peakHours": "活动举办期间"
    },
    {
        "id": "park_ch_039",
        "title": "【澄海区】澄海区档案馆停车场",
        "location": "澄海区档案馆",
        "district": "澄海区",
        "city": "汕头",
        "capacity": 40,
        "type": "文化设施停车场",
        "isPaid": false,
        "tags": ["文化设施", "公共服务"],
        "advantages": "环境安静，免费停车",
        "description": "查阅档案专用停车场",
        "peakHours": "工作日"
    },
    {
        "id": "park_ch_040",
        "title": "【澄海区】澄海区博物馆停车场",
        "location": "澄海区博物馆",
        "district": "澄海区",
        "city": "汕头",
        "capacity": 40,
        "type": "文化设施停车场",
        "isPaid": false,
        "tags": ["文化设施", "公共服务"],
        "advantages": "环境优美，免费停车",
        "description": "参观博物馆免费停车",
        "peakHours": "周末及节假日"
    },
    {
        "id": "park_ch_041",
        "title": "【澄海区】澄海区科技馆停车场",
        "location": "澄海区科技馆",
        "district": "澄海区",
        "city": "汕头",
        "capacity": 40,
        "type": "文化设施停车场",
        "isPaid": false,
        "tags": ["文化设施", "公共服务"],
        "advantages": "环境优美，免费停车",
        "description": "参观科技馆免费停车",
        "peakHours": "周末及节假日"
    },
    {
        "id": "park_ch_042",
        "title": "【澄海区】澄海区青少年活动中心停车场",
        "location": "澄海区青少年活动中心",
        "district": "澄海区",
        "city": "汕头",
        "capacity": 40,
        "type": "文化设施停车场",
        "isPaid": false,
        "tags": ["文化设施", "青少年活动"],
        "advantages": "环境安全，免费停车",
        "description": "参加青少年活动专用",
        "peakHours": "课后及周末"
    },
    {
        "id": "park_ch_043",
        "title": "【澄海区】澄海区老年人活动中心停车场",
        "location": "澄海区老年人活动中心",
        "district": "澄海区",
        "city": "汕头",
        "capacity": 40,
        "type": "文化设施停车场",
        "isPaid": false,
        "tags": ["文化设施", "老年活动"],
        "advantages": "环境舒适，免费停车",
        "description": "老年人活动专用停车场",
        "peakHours": "上午9:00-11:00"
    },
    {
        "id": "park_ch_044",
        "title": "【澄海区】澄海区残疾人康复中心停车场",
        "location": "澄海区残疾人康复中心",
        "district": "澄海区",
        "city": "汕头",
        "capacity": 30,
        "type": "医疗设施停车场",
        "isPaid": false,
        "tags": ["医疗设施", "康复中心"],
        "advantages": "无障碍设施完善",
        "description": "残疾人康复专用停车场",
        "peakHours": "工作日"
    },
    {
        "id": "park_ch_045",
        "title": "【澄海区】澄海区救助站停车场",
        "location": "澄海区救助站",
        "district": "澄海区",
        "city": "汕头",
        "capacity": 20,
        "type": "公共服务停车场",
        "isPaid": false,
        "tags": ["公共服务", "救助站"],
        "advantages": "24小时开放",
        "description": "救助站工作人员专用",
        "peakHours": "全天候"
    },
    {
        "id": "park_ch_046",
        "title": "【澄海区】澄海区殡仪馆停车场",
        "location": "澄海区殡仪馆",
        "district": "澄海区",
        "city": "汕头",
        "capacity": 50,
        "type": "公共服务停车场",
        "isPaid": false,
        "tags": ["公共服务", "殡仪馆"],
        "advantages": "场地宽敞，免费停车",
        "description": "殡仪服务专用停车场",
        "peakHours": "工作时间"
    },
    {
        "id": "park_ch_047",
        "title": "【澄海区】澄海区工人文化宫停车场",
        "location": "澄海区工人文化宫",
        "district": "澄海区",
        "city": "汕头",
        "capacity": 40,
        "type": "文化设施停车场",
        "isPaid": false,
        "tags": ["文化设施", "工人文化"],
        "advantages": "环境优美，免费停车",
        "description": "文化活动专用停车场",
        "peakHours": "工作日晚上及周末"
    },
    {
        "id": "park_ch_048",
        "title": "【澄海区】澄海区总工会停车场",
        "location": "澄海区总工会",
        "district": "澄海区",
        "city": "汕头",
        "capacity": 30,
        "type": "行政服务停车场",
        "isPaid": false,
        "tags": ["行政服务", "工会组织"],
        "advantages": "位置便利，免费停车",
        "description": "工会活动专用停车场",
        "peakHours": "工作日"
    }
]
}